City_ID,City,Country,Date,Lat,Lng,Max Temp,Humidity,Cloudiness,Wind Speed,Current Description
0,Kapaa,US,2019-11-11 00:21:23,22.08,-159.32,80.6,94,90,10.29,moderate rain
1,Saint-Philippe,CA,2019-11-11 00:19:39,45.36,-73.48,43.0,78,90,11.41,light rain
2,Havre-Saint-Pierre,CA,2019-11-11 00:24:19,50.23,-63.6,32.0,82,90,13.87,light snow
3,Kudahuvadhoo,MV,2019-11-11 00:16:10,2.67,72.89,82.17,73,98,5.55,overcast clouds
4,Ushuaia,AR,2019-11-11 00:23:31,-54.81,-68.31,57.2,47,6,13.87,clear sky
5,Araouane,ML,2019-11-11 00:12:43,18.9,-3.53,76.3,13,100,11.99,overcast clouds
6,Katobu,ID,2019-11-11 00:19:41,-4.94,122.53,85.78,58,49,5.35,scattered clouds
7,East%20London,ZA,2019-11-11 00:21:17,-33.02,27.91,68.2,81,100,21.41,light rain
8,Puerto%20Ayora,EC,2019-11-11 00:19:25,-0.74,-90.35,75.2,69,75,13.87,broken clouds
9,Una,IN,2019-11-11 00:24:20,31.47,76.27,56.8,60,85,2.93,overcast clouds
10,Mataura,NZ,2019-11-11 00:23:24,-46.19,168.86,54.0,59,100,10.0,light rain
11,Pasni,PK,2019-11-11 00:24:21,25.26,63.48,72.25,22,100,21.68,overcast clouds
12,Pisco,PE,2019-11-11 00:23:26,-13.71,-76.2,64.4,88,90,3.36,overcast clouds
13,Tuktoyaktuk,CA,2019-11-11 00:19:49,69.44,-133.03,14.0,66,5,16.11,clear sky
14,Hobart,AU,2019-11-11 00:20:05,-42.88,147.33,68.0,42,100,9.17,overcast clouds
15,Norman%20Wells,CA,2019-11-11 00:19:37,65.28,-126.83,6.8,77,5,3.62,clear sky
16,Nelson%20Bay,AU,2019-11-11 00:24:22,-32.72,152.14,77.0,35,56,8.05,broken clouds
17,Nikolskoye,RU,2019-11-11 00:23:45,59.7,30.79,44.6,87,75,4.47,broken clouds
18,Itoman,JP,2019-11-11 00:20:43,26.12,127.67,75.2,57,40,14.99,scattered clouds
19,Umm%20Lajj,SA,2019-11-11 00:24:22,25.02,37.27,78.64,55,86,1.61,overcast clouds
20,Ridgecrest,US,2019-11-11 00:24:22,35.62,-117.67,78.8,6,1,6.93,clear sky
21,Karratha,AU,2019-11-11 00:19:38,-20.74,116.85,80.87,53,0,9.57,clear sky
22,Saint%20George,GR,2019-11-11 00:22:42,39.45,22.34,48.2,87,0,4.29,clear sky
23,Okhotsk,RU,2019-11-11 00:24:23,59.36,143.24,11.62,82,96,7.9,overcast clouds
24,Hermanus,ZA,2019-11-11 00:23:38,-34.42,19.24,66.0,88,63,8.99,broken clouds
25,Cabo%20San%20Lucas,MX,2019-11-11 00:24:03,22.89,-109.91,82.99,51,75,3.36,broken clouds
26,Hilo,US,2019-11-11 00:19:27,19.71,-155.08,87.8,55,20,10.29,few clouds
27,Magadan,RU,2019-11-11 00:18:03,59.56,150.8,21.49,68,69,13.27,broken clouds
28,Barrow,AR,2019-11-11 00:19:49,-38.31,-60.23,54.5,83,69,14.34,broken clouds
29,Khatanga,RU,2019-11-11 00:15:23,71.98,102.47,-2.3,97,100,8.99,light snow
30,Rikitea,PF,2019-11-11 00:23:24,-23.12,-134.97,74.41,81,99,11.34,overcast clouds
31,Bethel,US,2019-11-11 00:23:31,60.79,-161.76,44.6,86,1,6.93,clear sky
32,Port%20Alfred,ZA,2019-11-11 00:23:56,-33.59,26.89,63.0,96,100,5.01,light rain
33,Ende,ID,2019-11-11 00:24:25,-8.84,121.65,81.18,77,31,5.5,scattered clouds
34,Tiarei,PF,2019-11-11 00:24:25,-17.53,-149.33,80.6,74,75,8.05,shower rain
35,Paamiut,GL,2019-11-11 00:23:57,61.99,-49.67,37.62,85,100,4.18,overcast clouds
36,Fallon,US,2019-11-11 00:24:25,46.84,-105.12,7.0,84,1,10.29,clear sky
37,Jamestown,AU,2019-11-11 00:23:50,-33.21,138.6,78.49,13,0,18.3,clear sky
38,Pouebo,NC,2019-11-11 00:24:26,-20.4,164.57,85.75,31,75,2.68,broken clouds
39,Ponta%20Do%20Sol,BR,2019-11-11 00:23:49,-20.63,-46.0,70.9,83,94,4.76,overcast clouds
40,Timiryazevskiy,RU,2019-11-11 00:24:26,47.05,39.61,46.4,93,75,11.18,broken clouds
41,Ponta%20Delgada,PT,2019-11-11 00:19:33,37.73,-25.67,62.6,82,20,6.93,few clouds
42,Faya,SA,2019-11-11 00:19:29,18.39,42.45,59.0,50,0,3.06,clear sky
43,Vikramasingapuram,IN,2019-11-11 00:24:27,8.71,77.39,77.0,94,40,1.92,scattered clouds
44,Busselton,AU,2019-11-11 00:19:23,-33.64,115.35,64.0,45,0,11.34,clear sky
45,Buribay,RU,2019-11-11 00:24:27,51.96,58.16,27.45,80,61,2.46,broken clouds
46,La%20Ronge,CA,2019-11-11 00:21:29,55.1,-105.3,5.0,60,75,10.29,broken clouds
47,Juazeiro,BR,2019-11-11 00:24:27,-9.43,-40.51,86.0,33,63,4.7,broken clouds
48,Cherskiy,RU,2019-11-11 00:19:56,68.75,161.3,12.04,54,75,0.49,broken clouds
49,Yulara,AU,2019-11-11 00:21:08,-25.24,130.99,84.2,7,42,8.05,scattered clouds
50,Road%20Town,VG,2019-11-11 00:19:44,18.42,-64.62,82.99,78,40,9.17,scattered clouds
51,Punta%20Arenas,CL,2019-11-11 00:19:24,-53.16,-70.91,53.6,66,75,16.11,broken clouds
52,Talnakh,RU,2019-11-11 00:19:35,69.49,88.39,-11.21,83,75,8.95,light shower snow
53,Mauriti,BR,2019-11-11 00:24:28,-7.39,-38.77,91.4,24,40,3.36,scattered clouds
54,Bredasdorp,ZA,2019-11-11 00:20:02,-34.53,20.04,66.0,82,100,17.22,overcast clouds
55,Cape%20Town,ZA,2019-11-11 00:19:28,-33.93,18.42,66.99,77,21,8.05,few clouds
56,Sao%20Joao%20Da%20Barra,BR,2019-11-11 00:24:29,-21.64,-41.05,75.42,90,100,4.36,light rain
57,Arona,IT,2019-11-11 00:24:29,45.76,8.56,46.0,100,51,5.82,broken clouds
58,Thompson,CA,2019-11-11 00:20:43,55.74,-97.86,-5.81,70,75,3.58,broken clouds
59,Tiksi,RU,2019-11-11 00:21:06,71.64,128.87,-10.74,96,95,0.89,overcast clouds
60,Bluff,AU,2019-11-11 00:19:37,-23.58,149.07,84.58,14,48,9.82,scattered clouds
61,Cockburn%20Town,TC,2019-11-11 00:24:30,21.46,-71.14,82.74,75,95,13.15,light rain
62,Kuzhithurai,IN,2019-11-11 00:24:30,8.32,77.18,77.0,94,40,2.33,scattered clouds
63,Nome,US,2019-11-11 00:24:06,30.04,-94.42,66.99,77,1,3.36,clear sky
64,Qasigiannguit,GL,2019-11-11 00:20:54,68.82,-51.19,42.8,28,100,25.28,overcast clouds
65,Morondava,MG,2019-11-11 00:24:31,-20.3,44.28,73.62,73,0,4.47,clear sky
66,Calatayud,ES,2019-11-11 00:24:31,41.35,-1.64,50.0,43,13,24.16,few clouds
67,Lethem,GY,2019-11-11 00:24:31,3.38,-59.8,86.59,52,100,8.93,overcast clouds
68,Namatanai,PG,2019-11-11 00:23:47,-3.66,152.44,83.48,68,90,5.59,overcast clouds
69,Dunedin,NZ,2019-11-11 00:24:32,-45.87,170.5,48.99,82,100,18.99,light rain
70,Vaini,IN,2019-11-11 00:23:32,15.34,74.49,66.13,80,0,5.03,clear sky
71,Goderich,CA,2019-11-11 00:20:11,43.74,-81.71,37.99,85,100,4.25,overcast clouds
72,Mindelo,PT,2019-11-11 00:24:32,41.31,-8.72,57.0,100,90,4.7,light intensity drizzle
73,Nurobod,UZ,2019-11-11 00:24:33,40.91,69.8,33.8,55,90,2.24,mist
74,San%20Lawrenz,MT,2019-11-11 00:24:33,36.06,14.2,66.2,55,40,13.87,moderate rain
75,Hazorasp,UZ,2019-11-11 00:24:33,41.32,61.08,30.2,86,0,6.93,clear sky
76,Sioux%20Lookout,CA,2019-11-11 00:22:13,50.1,-91.92,6.8,65,75,11.41,broken clouds
77,Coquimbo,CL,2019-11-11 00:15:44,-29.95,-71.34,57.2,87,0,6.93,clear sky
78,Grafenau,DE,2019-11-11 00:24:34,48.86,13.39,35.01,85,0,1.99,clear sky
79,New%20Norfolk,AU,2019-11-11 00:23:28,-42.78,147.06,68.0,42,100,9.17,overcast clouds
80,Tasiilaq,GL,2019-11-11 00:19:53,65.61,-37.64,39.2,80,100,54.13,light rain
81,Avarua,CK,2019-11-11 00:23:37,-21.21,-159.78,75.2,78,0,9.17,light rain
82,Xam%20Nua,LA,2019-11-11 00:17:51,20.42,104.04,54.39,80,73,1.68,broken clouds
83,Sehithwa,BW,2019-11-11 00:24:35,-20.47,22.7,74.44,67,100,4.09,light rain
84,Mocuba,MZ,2019-11-11 00:24:35,-16.84,36.99,74.05,88,68,3.67,broken clouds
85,Quanzhou,CN,2019-11-11 00:24:35,24.9,118.59,66.2,77,3,2.24,clear sky
86,Portland,US,2019-11-11 00:17:09,43.66,-70.25,44.6,45,90,6.93,overcast clouds
87,Qaanaaq,GL,2019-11-11 00:19:26,77.48,-69.36,-0.73,37,0,5.32,clear sky
88,Pleasant%20Point,CA,2019-11-11 00:24:36,44.45,-78.7,39.0,100,90,4.7,light rain
89,Severo-Kurilsk,RU,2019-11-11 00:22:15,50.68,156.12,30.76,84,85,19.55,light snow
90,Meulaboh,ID,2019-11-11 00:19:11,4.14,96.13,79.57,78,99,3.02,light rain
91,Margate,AU,2019-11-11 00:16:04,-43.03,147.26,68.0,42,100,9.17,overcast clouds
92,Mariara,VE,2019-11-11 00:24:36,10.28,-67.69,74.8,91,100,6.69,light rain
93,Carnarvon,ZA,2019-11-11 00:19:12,-30.97,22.13,61.45,55,28,9.78,scattered clouds
94,Atuona,PF,2019-11-11 00:19:34,-9.8,-139.03,79.99,68,4,9.98,clear sky
95,Fairbanks,US,2019-11-11 00:21:09,64.84,-147.72,19.4,78,90,1.23,overcast clouds
96,Yellowknife,CA,2019-11-11 00:15:08,62.45,-114.38,10.4,72,40,4.7,scattered clouds
97,Skjervoy,NO,2019-11-11 00:24:37,70.03,20.97,31.48,46,18,8.28,few clouds
98,Westport,US,2019-11-11 00:22:13,41.14,-73.36,52.0,61,20,3.36,few clouds
99,Kavaratti,IN,2019-11-11 00:16:20,10.57,72.64,80.85,73,69,6.58,broken clouds
100,Ossora,RU,2019-11-11 00:15:29,59.24,163.07,30.63,73,93,7.09,overcast clouds
101,Asosa,ET,2019-11-11 00:21:09,10.07,34.53,65.59,84,0,4.85,clear sky
102,Mar%20Del%20Plata,AR,2019-11-11 00:19:25,-46.43,-67.52,51.67,78,27,10.92,light rain
103,Lebu,ET,2019-11-11 00:19:09,8.96,38.73,50.61,75,37,1.61,scattered clouds
104,Erzin,TR,2019-11-11 00:16:00,36.95,36.2,66.99,76,20,3.36,few clouds
105,Clyde%20River,CA,2019-11-11 00:20:15,70.47,-68.59,12.2,92,100,29.97,snow
106,Trinidad,BO,2019-11-11 00:24:39,-14.83,-64.9,73.4,94,90,4.7,light rain
107,Avera,US,2019-11-11 00:24:13,33.19,-82.53,51.8,71,1,4.07,clear sky
108,Cambridge,CA,2019-11-11 00:22:31,43.39,-80.31,39.99,96,90,4.7,light rain
109,Satipo,PE,2019-11-11 00:24:40,-11.26,-74.64,63.84,90,96,4.07,light rain
110,Gigmoto,PH,2019-11-11 00:24:40,13.78,124.39,81.37,81,100,11.79,light rain
111,Mahebourg,MU,2019-11-11 00:23:50,-20.41,57.7,71.01,94,40,5.82,scattered clouds
112,Souillac,FR,2019-11-11 00:19:41,45.6,-0.6,41.0,93,30,5.82,scattered clouds
113,Provideniya,RU,2019-11-11 00:19:48,64.42,-173.23,37.4,98,90,20.13,overcast clouds
114,Hithadhoo,MV,2019-11-11 00:24:41,-0.6,73.08,82.67,71,90,7.85,overcast clouds
115,Saint-Georges,CA,2019-11-11 00:19:27,46.12,-70.67,36.0,59,100,5.01,light snow
116,Tautira,PF,2019-11-11 00:20:14,-17.73,-149.15,80.6,74,75,8.05,shower rain
117,Constitucion,MX,2019-11-11 00:24:41,23.99,-104.67,77.0,23,75,8.05,broken clouds
118,Katsuura,JP,2019-11-11 00:24:42,33.93,134.5,66.0,76,40,6.93,scattered clouds
119,Caceres,CO,2019-11-11 00:24:42,5.53,-74.53,69.85,96,63,2.75,moderate rain
120,Mercedes,UY,2019-11-11 00:24:42,-33.25,-58.03,72.0,68,0,5.01,clear sky
121,Carlos%20Chagas,BR,2019-11-11 00:24:42,-17.7,-40.76,71.83,79,64,5.39,broken clouds
122,Ostrovnoy,RU,2019-11-11 00:19:14,68.05,39.51,23.79,89,100,11.97,light snow
123,Develi,TR,2019-11-11 00:24:43,38.39,35.49,37.4,74,19,1.01,few clouds
124,Longyearbyen,NO,2019-11-11 00:12:54,78.22,15.63,14.0,72,40,11.41,scattered clouds
125,Bontang,ID,2019-11-11 00:24:43,0.12,117.47,80.31,82,4,3.6,light rain
126,Abu%20Dhabi,AE,2019-11-11 00:24:43,24.47,54.37,71.6,68,0,6.93,clear sky
127,Tsiroanomandidy,MG,2019-11-11 00:24:43,-18.77,46.05,75.97,62,50,2.8,scattered clouds
128,Amahai,ID,2019-11-11 00:24:44,-3.31,129.0,81.0,76,99,2.91,overcast clouds
129,Ribeira%20Grande,PT,2019-11-11 00:23:28,38.52,-28.7,61.92,85,39,3.06,scattered clouds
130,Bambanglipuro,ID,2019-11-11 00:24:44,-7.95,110.28,79.29,76,100,8.81,overcast clouds
131,Adrar,DZ,2019-11-11 00:19:46,27.87,-0.29,57.2,26,0,4.7,clear sky
132,Port%20Augusta,AU,2019-11-11 00:24:44,-32.49,137.76,86.0,12,0,24.16,clear sky
133,Comodoro%20Rivadavia,AR,2019-11-11 00:24:26,-45.87,-67.48,55.4,82,40,9.17,light intensity shower rain
134,Susehri,TR,2019-11-11 00:24:45,40.16,38.09,41.68,52,0,2.51,clear sky
135,Ilulissat,GL,2019-11-11 00:20:11,69.22,-51.1,42.8,28,100,25.28,overcast clouds
136,Caravelas,BR,2019-11-11 00:19:24,-17.73,-39.27,72.59,92,79,8.01,broken clouds
137,Seoul,KR,2019-11-11 00:22:31,37.57,126.98,53.6,93,20,1.12,light rain
138,Lavrentiya,RU,2019-11-11 00:18:59,65.58,-170.99,34.63,89,100,12.64,light rain
139,Phayao,TH,2019-11-11 00:21:52,19.17,99.9,66.83,95,8,1.14,clear sky
140,Cidreira,BR,2019-11-11 00:22:26,-30.17,-50.22,69.67,85,98,16.64,light rain
141,Saldanha,PT,2019-11-11 00:23:55,41.42,-6.55,43.14,91,95,3.22,overcast clouds
142,Inhambane,MZ,2019-11-11 00:17:04,-23.87,35.38,75.36,77,61,12.46,broken clouds
143,Lermontovka,RU,2019-11-11 00:24:47,47.15,134.34,36.36,91,100,6.38,overcast clouds
144,Arkhangelskoye,RU,2019-11-11 00:24:47,54.46,37.62,42.48,94,100,13.71,overcast clouds
145,Lima,PE,2019-11-11 00:22:46,-12.06,-77.04,66.2,82,18,10.29,few clouds
146,Albany,US,2019-11-11 00:23:46,42.65,-73.75,44.6,52,90,4.7,overcast clouds
147,Arraial%20Do%20Cabo,BR,2019-11-11 00:21:07,-22.97,-42.02,77.0,88,75,5.82,broken clouds
148,Castro,CL,2019-11-11 00:24:48,-42.48,-73.76,55.4,82,99,5.82,overcast clouds
149,Flin%20Flon,CA,2019-11-11 00:24:48,54.77,-101.88,5.0,71,75,8.05,light snow
150,Lazaro%20Cardenas,MX,2019-11-11 00:20:50,28.39,-105.62,75.2,50,40,6.93,scattered clouds
151,Kodiak,US,2019-11-11 00:24:48,39.95,-94.76,48.99,61,1,16.11,clear sky
152,Thinadhoo,MV,2019-11-11 00:20:46,0.53,72.93,82.29,72,100,6.06,light rain
153,Sao%20Mateus%20Do%20Sul,BR,2019-11-11 00:24:48,-25.87,-50.38,64.54,98,91,4.05,light rain
154,Iralaya,HN,2019-11-11 00:17:25,15.0,-83.23,84.2,79,75,6.93,haze
155,Yerbogachen,RU,2019-11-11 00:19:55,61.28,108.01,-17.67,96,95,6.51,overcast clouds
156,Cap%20Malheureux,MU,2019-11-11 00:21:24,-19.98,57.61,71.01,94,40,5.82,scattered clouds
157,Sola,TZ,2019-11-11 00:20:44,-3.17,33.8,70.5,71,89,3.98,overcast clouds
158,Narsaq,GL,2019-11-11 00:23:49,60.91,-46.05,33.8,80,100,32.21,light snow
159,Gardabani,GE,2019-11-11 00:24:50,41.46,45.09,42.8,75,0,2.24,clear sky
160,Half%20Moon%20Bay,US,2019-11-11 00:23:36,37.46,-122.43,75.2,63,1,5.82,clear sky
161,Antofagasta,CL,2019-11-11 00:24:51,-23.65,-70.4,60.8,77,75,2.24,broken clouds
162,Awbari,LY,2019-11-11 00:15:28,26.59,12.77,72.81,36,100,6.62,overcast clouds
163,Alyangula,AU,2019-11-11 00:24:00,-13.85,136.42,86.0,48,76,3.36,broken clouds
164,Airai,TL,2019-11-11 00:19:40,-8.93,125.41,84.38,22,10,5.95,clear sky
165,Progreso,UY,2019-11-11 00:21:47,-34.68,-56.22,64.99,82,20,16.11,few clouds
166,Minden,US,2019-11-11 00:24:52,40.5,-98.95,37.4,74,90,24.16,overcast clouds
167,Iracoubo,GF,2019-11-11 00:16:40,5.48,-53.21,81.73,84,61,15.37,broken clouds
168,Khasan,RU,2019-11-11 00:15:32,42.43,130.64,43.75,67,100,5.5,overcast clouds
169,Sitka,US,2019-11-11 00:20:27,37.17,-99.65,55.0,46,100,9.37,overcast clouds
170,Klaksvik,FO,2019-11-11 00:24:52,62.23,-6.59,37.4,74,100,26.4,light snow
171,Haines%20Junction,CA,2019-11-11 00:17:59,60.75,-137.51,2.62,58,0,0.92,clear sky
172,Ukiah,US,2019-11-11 00:24:53,39.15,-123.21,81.0,25,1,3.36,clear sky
173,Saint-Leu,RE,2019-11-11 00:24:53,-21.15,55.28,70.0,56,83,6.93,broken clouds
174,Villa%20Corzo,MX,2019-11-11 00:24:53,16.19,-93.27,77.0,69,40,13.87,scattered clouds
175,Kamaishi,JP,2019-11-11 00:15:02,39.28,141.86,41.0,80,75,2.24,broken clouds
176,Ankang,CN,2019-11-11 00:24:53,32.73,108.99,50.45,69,16,1.72,few clouds
177,Basco,US,2019-11-11 00:12:58,40.33,-91.2,46.4,80,1,9.17,clear sky
178,Kisujszallas,HU,2019-11-11 00:24:54,47.22,20.77,44.01,100,75,6.93,broken clouds
179,Banepa,NP,2019-11-11 00:20:09,27.63,85.52,53.6,100,20,3.36,mist
180,Maldonado,UY,2019-11-11 00:22:26,-34.91,-54.96,62.26,80,16,18.63,few clouds
181,Puerto%20Del%20Rosario,ES,2019-11-11 00:24:54,28.5,-13.86,68.0,68,75,25.28,broken clouds
182,Taber,CA,2019-11-11 00:24:54,49.79,-112.14,5.0,84,75,3.36,broken clouds
183,Sainte-Suzanne,CH,2019-11-11 00:24:55,47.51,6.77,37.0,100,90,4.7,fog
184,Angoche,MZ,2019-11-11 00:24:55,-16.23,39.91,77.13,88,42,1.16,scattered clouds
185,Mitu,IR,2019-11-11 00:24:55,36.2,46.09,36.16,31,0,4.47,clear sky
186,Nanfeng,CN,2019-11-11 00:24:55,27.22,116.52,58.28,55,4,0.98,clear sky
187,Butaritari,KI,2019-11-11 00:19:44,3.07,172.79,83.91,71,98,6.6,overcast clouds
188,Aldine,US,2019-11-11 00:24:56,29.93,-95.38,69.01,68,75,9.17,broken clouds
189,Dikson,RU,2019-11-11 00:20:59,73.51,80.55,10.13,95,41,8.41,scattered clouds
190,Port%20Elizabeth,US,2019-11-11 00:23:44,39.31,-74.98,52.0,61,1,8.05,clear sky
191,Leningradskiy,RU,2019-11-11 00:19:50,69.38,178.42,16.97,68,58,8.01,broken clouds
192,Blessington,IE,2019-11-11 00:24:56,53.17,-6.53,44.01,87,20,11.41,few clouds
193,Torva,EE,2019-11-11 00:24:56,58.0,25.93,43.0,93,90,5.82,overcast clouds
194,Chuy,UY,2019-11-11 00:21:11,-33.69,-53.46,60.85,83,3,11.27,clear sky
195,Dingle,PH,2019-11-11 00:21:43,11.0,122.67,78.91,76,84,1.41,broken clouds
196,Ekhabi,RU,2019-11-11 00:24:57,53.51,142.97,23.14,63,3,6.26,clear sky
197,Georgetown,GY,2019-11-11 00:22:29,6.8,-58.16,82.4,83,75,6.93,broken clouds
198,Ratnagiri,IN,2019-11-11 00:24:57,16.98,73.3,68.99,75,0,2.84,clear sky
199,Nuuk,GL,2019-11-11 00:21:13,64.17,-51.74,46.4,28,97,11.41,overcast clouds
200,Patacamaya,BO,2019-11-11 00:21:47,-17.23,-67.92,45.36,86,98,7.25,light rain
201,Tutin,RS,2019-11-11 00:24:58,42.99,20.34,39.63,85,34,2.24,scattered clouds
202,Calais,FR,2019-11-11 00:24:58,50.95,1.87,50.0,93,90,6.93,overcast clouds
203,Neiafu,TO,2019-11-11 00:24:58,-18.65,-173.98,80.6,78,75,11.41,broken clouds
204,Mandaguacu,BR,2019-11-11 00:24:58,-23.35,-52.1,75.0,88,75,1.5,broken clouds
205,Port%20Macquarie,AU,2019-11-11 00:13:52,-31.43,152.91,75.99,59,90,3.36,overcast clouds
206,San%20Patricio,PY,2019-11-11 00:23:30,-26.98,-56.83,74.05,73,23,9.6,few clouds
207,Upernavik,GL,2019-11-11 00:24:59,72.79,-56.15,26.37,63,95,10.58,overcast clouds
208,San%20Vicente,EC,2019-11-11 00:15:54,-0.59,-80.41,73.4,88,90,10.29,overcast clouds
209,Axim,GH,2019-11-11 00:24:59,4.87,-2.24,75.76,92,83,5.64,moderate rain
210,Mayskiy,RU,2019-11-11 00:15:38,43.63,44.06,39.2,100,90,2.24,fog
211,Walvis%20Bay,NA,2019-11-11 00:23:34,-22.95,14.51,57.2,87,20,1.12,few clouds
212,Ambon,FR,2019-11-11 00:24:51,47.55,-2.56,46.0,93,90,2.24,overcast clouds
213,Atbasar,KZ,2019-11-11 00:24:17,51.81,68.36,12.92,74,93,3.65,overcast clouds
214,Hasaki,JP,2019-11-11 00:22:10,35.73,140.83,60.8,93,75,6.93,mist
215,Chokurdakh,RU,2019-11-11 00:19:16,70.62,147.9,2.52,96,94,8.66,overcast clouds
216,Camacha,PT,2019-11-11 00:25:01,33.08,-16.33,66.2,68,40,10.29,scattered clouds
217,Iskateley,RU,2019-11-11 00:25:01,67.68,53.15,12.9,95,100,5.53,light snow
218,Roebourne,AU,2019-11-11 00:16:42,-20.77,117.15,93.56,12,0,6.2,clear sky
219,Coihaique,CL,2019-11-11 00:20:53,-45.58,-72.07,59.0,67,20,3.36,few clouds
220,Jinchang,CN,2019-11-11 00:25:01,38.52,102.19,32.45,27,71,4.43,broken clouds
221,Vrangel,RU,2019-11-11 00:16:17,42.73,133.08,48.16,91,100,15.5,light rain
222,Lenger,KZ,2019-11-11 00:25:02,42.18,69.89,32.0,28,0,2.24,clear sky
223,Nabire,ID,2019-11-11 00:25:02,-3.36,135.5,85.73,56,96,0.54,overcast clouds
224,Onega,RU,2019-11-11 00:25:02,63.91,38.09,34.2,94,100,11.07,light rain
225,Grand%20Gaube,MU,2019-11-11 00:25:02,-20.01,57.66,71.01,94,40,5.82,scattered clouds
226,Ahipara,NZ,2019-11-11 00:20:38,-35.17,173.16,59.0,100,100,11.16,moderate rain
227,Launceston,AU,2019-11-11 00:17:27,-41.43,147.14,59.0,62,75,20.8,broken clouds
228,San%20Cristobal,HN,2019-11-11 00:23:56,14.68,-86.92,67.05,93,82,3.53,light rain
229,Touros,BR,2019-11-11 00:21:06,-5.2,-35.46,77.0,83,40,4.7,scattered clouds
230,Hervey%20Bay,AU,2019-11-11 00:25:03,-25.3,152.85,88.0,22,0,8.05,clear sky
231,Buraydah,SA,2019-11-11 00:19:37,26.33,43.97,68.0,72,20,10.29,few clouds
232,Geraldton,CA,2019-11-11 00:21:14,49.72,-86.95,1.4,77,20,5.82,few clouds
233,Buala,SB,2019-11-11 00:23:25,-8.15,159.59,81.79,78,100,5.19,moderate rain
234,Bathsheba,BB,2019-11-11 00:20:14,13.22,-59.52,82.4,78,20,17.22,few clouds
235,Lagoa,PT,2019-11-11 00:25:04,37.14,-8.45,60.8,72,75,10.29,broken clouds
236,Galbinasi,RO,2019-11-11 00:25:04,45.08,26.92,57.88,75,21,9.37,few clouds
237,Illela,NG,2019-11-11 00:25:05,12.25,4.3,79.65,29,87,3.24,overcast clouds
238,Bukachacha,RU,2019-11-11 00:25:05,52.99,116.91,4.33,64,0,10.09,clear sky
239,Marsh%20Harbour,BS,2019-11-11 00:25:06,26.54,-77.06,75.7,65,11,16.42,few clouds
240,Ocampo,MX,2019-11-11 00:21:13,27.32,-102.4,69.13,59,86,2.48,overcast clouds
241,Antequera,ES,2019-11-11 00:25:06,37.02,-4.56,59.0,54,40,9.17,scattered clouds
242,Najran,SA,2019-11-11 00:23:45,17.54,44.22,64.4,36,0,3.71,clear sky
243,Chippewa%20Falls,US,2019-11-11 00:21:50,44.94,-91.39,23.0,53,40,11.86,scattered clouds
244,Fortuna,US,2019-11-11 00:20:36,40.6,-124.16,61.0,82,1,10.29,clear sky
245,Mitsamiouli,KM,2019-11-11 00:25:07,-11.38,43.28,79.25,78,96,5.64,overcast clouds
246,Carmen,PH,2019-11-11 00:25:07,7.36,125.71,82.4,74,75,3.36,broken clouds
247,Mabaruma,GY,2019-11-11 00:25:07,8.2,-59.78,75.11,98,79,2.21,broken clouds
248,Wenzhou,CN,2019-11-11 00:25:07,28.02,120.66,68.0,61,33,3.24,scattered clouds
249,Tiznit,MA,2019-11-11 00:19:59,29.7,-9.73,54.25,53,17,1.57,few clouds
250,Mattawa,CA,2019-11-11 00:25:08,46.32,-78.7,19.99,85,75,8.05,broken clouds
251,Tomatlan,MX,2019-11-11 00:25:08,19.93,-105.25,77.0,93,0,4.07,light rain
252,La%20Brea,TT,2019-11-11 00:25:08,10.24,-61.62,80.6,83,20,5.82,few clouds
253,Kikwit,CD,2019-11-11 00:25:09,-5.04,18.82,71.06,96,100,1.72,light rain
254,Pangnirtung,CA,2019-11-11 00:24:47,66.15,-65.72,16.18,61,96,10.18,overcast clouds
255,Port%20Hedland,AU,2019-11-11 00:21:03,-20.31,118.58,87.8,35,48,8.05,scattered clouds
256,Hami,CN,2019-11-11 00:17:48,42.84,93.51,35.35,41,16,1.79,few clouds
257,Bambous%20Virieux,MU,2019-11-11 00:19:47,-20.34,57.76,71.01,94,40,5.82,scattered clouds
258,Lake%20City,US,2019-11-11 00:25:10,38.03,-107.32,51.8,24,1,6.93,clear sky
259,Khandyga,RU,2019-11-11 00:25:10,62.65,135.58,-13.55,97,100,0.83,light snow
260,Berlevag,NO,2019-11-11 00:21:35,70.86,29.09,32.65,71,69,16.49,broken clouds
261,Viedma,AR,2019-11-11 00:22:33,-40.81,-62.99,53.67,78,76,15.35,light rain
262,Ust-Ishim,RU,2019-11-11 00:25:11,57.69,71.17,15.57,86,87,3.98,overcast clouds
263,Mecca,SA,2019-11-11 00:25:11,21.43,39.83,77.41,58,3,2.39,clear sky
264,Chateauroux,FR,2019-11-11 00:25:11,43.72,0.65,39.2,93,8,2.24,clear sky
265,Pevek,RU,2019-11-11 00:23:40,69.7,170.27,11.52,75,95,1.52,overcast clouds
266,Husavik,CA,2019-11-11 00:19:50,50.56,-96.99,6.01,74,17,7.0,few clouds
267,Klyuchi,RU,2019-11-11 00:25:12,52.25,79.17,18.41,50,21,8.05,few clouds
268,Los%20Llanos%20De%20Aridane,ES,2019-11-11 00:20:51,28.66,-17.92,69.8,73,90,16.11,overcast clouds
269,Fare,PF,2019-11-11 00:25:12,-16.7,-151.02,80.02,79,100,11.65,moderate rain
270,Esperance,AU,2019-11-11 00:20:22,-33.86,121.89,57.2,62,75,13.87,broken clouds
271,Niquelandia,BR,2019-11-11 00:25:13,-14.47,-48.46,73.47,69,100,2.75,overcast clouds
272,Kaitangata,NZ,2019-11-11 00:15:43,-46.28,169.85,51.01,55,100,13.0,overcast clouds
273,Kailua,US,2019-11-11 00:23:16,21.39,-157.74,87.8,69,90,9.17,overcast clouds
274,Vila%20Velha,BR,2019-11-11 00:20:51,-3.71,-38.6,86.0,74,66,10.29,broken clouds
275,Kinlochleven,GB,2019-11-11 00:25:14,56.71,-4.97,39.0,89,100,1.99,snow
276,Poya,NC,2019-11-11 00:17:35,-21.35,165.16,71.04,65,9,15.5,clear sky
277,Preston,GB,2019-11-11 00:22:34,53.76,-2.71,42.01,86,100,5.82,light rain
278,Vila%20Franca%20Do%20Campo,PT,2019-11-11 00:21:04,37.72,-25.43,62.6,82,20,6.93,few clouds
279,Saint-Joseph,FR,2019-11-11 00:24:12,43.56,6.97,57.2,81,90,2.24,overcast clouds
280,Tooele,US,2019-11-11 00:25:14,40.53,-112.3,55.4,34,1,4.7,clear sky
281,Auki,NG,2019-11-11 00:21:34,12.18,6.51,78.44,36,97,1.39,overcast clouds
282,Iwaki,JP,2019-11-11 00:25:15,37.05,140.89,57.99,100,75,3.36,light intensity shower rain
283,Waingapu,ID,2019-11-11 00:20:57,-9.65,120.26,81.57,73,0,3.4,clear sky
284,Khatima,IN,2019-11-11 00:25:15,28.92,79.97,63.63,68,70,2.21,broken clouds
285,Chicama,PE,2019-11-11 00:19:58,-7.84,-79.15,64.4,82,40,9.17,scattered clouds
286,Chaoyang,CN,2019-11-11 00:25:16,41.58,120.44,40.14,62,0,3.96,clear sky
287,Surt,LY,2019-11-11 00:17:01,31.21,16.59,63.95,79,9,10.49,clear sky
288,Uppsala,SE,2019-11-11 00:21:14,59.86,17.64,28.99,100,98,5.82,overcast clouds
289,Alofi,NU,2019-11-11 00:25:16,-19.06,-169.92,82.4,61,22,16.11,few clouds
290,Beinamar,TD,2019-11-11 00:20:33,8.67,15.38,75.31,44,70,0.74,broken clouds
291,Kavieng,PG,2019-11-11 00:20:24,-2.57,150.8,81.77,70,93,3.24,overcast clouds
292,Kahului,US,2019-11-11 00:22:34,20.89,-156.47,87.8,58,40,19.46,scattered clouds
293,Barda,RU,2019-11-11 00:25:17,56.93,55.59,28.49,89,98,9.93,overcast clouds
294,Lorengau,PG,2019-11-11 00:19:32,-2.02,147.27,83.12,73,81,7.58,moderate rain
295,Leh,IN,2019-11-11 00:25:18,34.16,77.58,11.77,51,63,5.88,broken clouds
296,Mpongwe,ZM,2019-11-11 00:25:18,-13.51,28.16,64.35,84,84,4.18,light rain
297,Catuday,PH,2019-11-11 00:16:35,16.29,119.81,80.55,74,73,2.01,broken clouds
298,Santa%20Rosalia,IT,2019-11-11 00:17:54,38.07,13.27,62.6,51,40,18.34,light rain
299,Karpogory,RU,2019-11-11 00:20:44,64.0,44.44,31.24,98,100,3.83,overcast clouds
300,Remedios,CO,2019-11-11 00:25:19,7.03,-74.7,72.16,97,83,4.54,light rain
301,Bahia%20Blanca,AR,2019-11-11 00:25:19,-38.72,-62.27,62.17,67,79,19.64,broken clouds
302,Srikakulam,IN,2019-11-11 00:25:14,18.29,83.89,71.83,88,4,4.68,clear sky
303,Hofn,IS,2019-11-11 00:15:35,64.25,-15.21,43.02,80,100,42.68,light rain
304,Baykit,RU,2019-11-11 00:17:42,61.68,96.39,-19.84,97,96,2.37,overcast clouds
305,Naze,NG,2019-11-11 00:21:35,5.43,7.07,71.24,88,100,2.1,overcast clouds
306,General%20Escobedo,MX,2019-11-11 00:25:20,25.81,-100.32,75.2,77,90,3.36,overcast clouds
307,Ust-Maya,RU,2019-11-11 00:25:20,60.42,134.54,-16.25,94,0,0.51,clear sky
308,Villa%20Maria,CO,2019-11-11 00:20:15,4.5,-74.09,75.2,82,40,6.93,shower rain
309,Port%20Lincoln,AU,2019-11-11 00:19:52,-34.72,135.86,83.12,16,0,23.0,clear sky
310,Iqaluit,CA,2019-11-11 00:25:21,63.75,-68.52,3.2,77,75,8.05,broken clouds
311,Bandarbeyla,SO,2019-11-11 00:25:21,9.49,50.81,79.47,70,34,12.84,light rain
312,Ucluelet,CA,2019-11-11 00:23:48,48.94,-125.55,52.0,100,90,2.24,overcast clouds
313,Ahuimanu,US,2019-11-11 00:25:21,21.44,-157.84,87.8,69,90,9.17,overcast clouds
314,Outjo,NA,2019-11-11 00:25:22,-20.11,16.16,71.6,56,98,1.12,overcast clouds
315,Zhigansk,RU,2019-11-11 00:23:58,66.77,123.37,-0.1,95,100,6.26,light snow
316,Russkaya%20Polyana,RU,2019-11-11 00:25:22,53.78,73.88,17.19,62,94,1.32,overcast clouds
317,Vila,IT,2019-11-11 00:17:05,45.18,8.4,46.0,100,94,5.82,overcast clouds
318,Knysna,ZA,2019-11-11 00:25:22,-34.04,23.05,60.8,93,59,11.41,broken clouds
319,Brazzaville,CD,2019-11-11 00:25:23,-4.27,15.27,80.6,88,40,4.7,thunderstorm
320,Kruisfontein,ZA,2019-11-11 00:24:06,-34.0,24.73,63.07,85,92,17.36,overcast clouds
321,Nanortalik,GL,2019-11-11 00:19:56,60.14,-45.24,30.79,89,100,52.68,snow
322,Manta,RO,2019-11-11 00:22:53,45.1,24.1,48.49,85,37,1.68,scattered clouds
323,Hazleton,US,2019-11-11 00:25:23,40.96,-75.99,42.8,64,75,3.58,broken clouds
324,Pangoa,PE,2019-11-11 00:17:55,-12.12,-73.0,71.85,97,100,5.82,moderate rain
325,Mayo,CA,2019-11-11 00:25:24,63.59,-135.9,-11.21,76,5,2.55,clear sky
326,Bubaque,GW,2019-11-11 00:16:15,11.28,-15.83,83.43,71,20,11.36,few clouds
327,Kropotkin,RU,2019-11-11 00:15:26,45.43,40.58,46.56,91,100,7.43,overcast clouds
328,Lufilufi,WS,2019-11-11 00:25:24,-13.87,-171.6,86.0,70,20,8.01,few clouds
329,Sinop,TR,2019-11-11 00:25:25,42.03,35.15,64.35,46,24,4.92,few clouds
330,Porto%20Walter,BR,2019-11-11 00:25:25,-8.27,-72.74,74.21,84,82,3.38,broken clouds
331,Nizwa,OM,2019-11-11 00:25:25,22.93,57.53,63.61,72,55,0.87,light rain
332,Abengourou,CI,2019-11-11 00:25:25,6.73,-3.5,74.61,91,88,2.55,overcast clouds
333,Hobyo,SO,2019-11-11 00:25:25,5.35,48.53,76.96,82,15,10.45,few clouds
334,Ciudad%20Guayana,VE,2019-11-11 00:25:26,8.32,-62.69,81.0,82,68,5.01,light rain
335,Praia,BR,2019-11-11 00:18:27,-20.25,-43.81,82.4,51,40,5.82,scattered clouds
336,Manono,CD,2019-11-11 00:25:26,-7.3,27.4,71.4,87,100,1.72,overcast clouds
337,Neuquen,AR,2019-11-11 00:20:19,-38.95,-68.06,57.2,76,75,5.82,broken clouds
338,Abha,SA,2019-11-11 00:16:44,18.22,42.5,59.0,50,0,1.16,clear sky
339,Luderitz,NA,2019-11-11 00:17:10,-26.65,15.16,59.0,87,0,2.24,clear sky
340,Rybachiy,RU,2019-11-11 00:25:27,48.71,44.74,39.2,93,90,17.9,fog
341,Port%20Hardy,CA,2019-11-11 00:21:02,50.7,-127.42,50.0,93,75,4.7,broken clouds
342,Waipawa,NZ,2019-11-11 00:25:27,-39.94,176.59,63.0,62,63,15.99,broken clouds
343,Itarema,BR,2019-11-11 00:25:27,-2.92,-39.92,77.67,77,97,10.27,overcast clouds
344,Vao,EE,2019-11-11 00:16:02,59.1,26.19,40.59,95,96,6.44,overcast clouds
345,Tekeli,KZ,2019-11-11 00:25:28,44.86,78.76,21.0,95,98,4.97,snow
346,Oranjemund,ZA,2019-11-11 00:25:28,-28.55,16.43,58.57,85,17,7.2,few clouds
347,Pahrump,US,2019-11-11 00:25:28,36.21,-115.98,75.0,5,1,3.42,clear sky
348,Traralgon,AU,2019-11-11 00:16:25,-38.19,146.54,72.0,67,33,1.99,scattered clouds
349,Boden,SE,2019-11-11 00:21:39,65.83,21.69,14.0,85,98,9.17,overcast clouds
350,Mogadishu,SO,2019-11-11 00:23:45,2.04,45.34,81.7,76,100,13.85,light rain
351,Xining,CN,2019-11-11 00:25:29,36.62,101.77,29.01,43,76,4.21,broken clouds
352,Hamilton,CA,2019-11-11 00:23:57,43.26,-79.87,42.01,86,90,12.75,moderate rain
353,Victoria,BN,2019-11-11 00:22:43,5.28,115.24,82.4,83,75,1.12,broken clouds
354,Broken%20Hill,AU,2019-11-11 00:16:13,-31.97,141.45,77.0,13,0,14.99,clear sky
355,Kohima,IN,2019-11-11 00:25:30,25.66,94.1,55.94,97,100,2.77,overcast clouds
356,Erenhot,CN,2019-11-11 00:25:30,43.65,111.97,34.14,62,2,6.85,clear sky
357,Strezhevoy,RU,2019-11-11 00:25:31,60.73,77.6,-18.41,82,0,1.74,clear sky
358,Dhidhdhoo,MV,2019-11-11 00:17:14,6.88,73.1,81.45,68,0,4.85,clear sky
359,Faanui,PF,2019-11-11 00:23:40,-16.48,-151.75,80.06,77,92,11.14,moderate rain
360,Gamba,CN,2019-11-11 00:16:42,28.28,88.52,22.05,55,0,1.05,clear sky
361,Pismo%20Beach,US,2019-11-11 00:25:31,35.14,-120.64,69.01,72,1,4.7,clear sky
362,Kununurra,AU,2019-11-11 00:24:14,-15.77,128.74,91.4,49,72,4.7,broken clouds
363,Port-Cartier,CA,2019-11-11 00:19:58,50.03,-66.88,35.01,87,90,17.22,overcast clouds
364,Tuatapere,NZ,2019-11-11 00:19:32,-46.13,167.69,53.01,58,100,11.01,light rain
365,Mahibadhoo,MV,2019-11-11 00:25:32,3.78,72.97,81.57,73,35,6.38,moderate rain
366,Moses%20Lake,US,2019-11-11 00:25:32,47.13,-119.28,50.0,66,1,4.7,clear sky
367,Noumea,NC,2019-11-11 00:17:57,-22.28,166.46,82.4,45,75,10.29,broken clouds
368,Hwange,ZW,2019-11-11 00:21:18,-18.35,26.5,71.58,77,98,1.32,overcast clouds
369,Palmer,AU,2019-11-11 00:21:34,-34.85,139.16,84.0,14,3,24.16,clear sky
370,Burgos,ES,2019-11-11 00:24:38,42.34,-3.7,37.4,93,75,4.7,broken clouds
371,Petropavlovsk-Kamchatskiy,RU,2019-11-11 00:25:33,53.05,158.65,35.6,64,10,11.18,clear sky
372,Sur,OM,2019-11-11 00:25:33,22.57,59.53,74.28,59,0,6.17,clear sky
373,Rio%20Grande,BR,2019-11-11 00:24:08,-32.03,-52.1,68.0,87,11,7.0,light rain
374,Kirishi,RU,2019-11-11 00:25:34,59.45,32.01,41.0,99,100,3.83,overcast clouds
375,Luba,PH,2019-11-11 00:25:34,17.32,120.7,76.32,82,39,3.51,scattered clouds
376,Nouadhibou,MR,2019-11-11 00:19:42,20.93,-17.03,68.0,72,10,18.34,clear sky
377,Sindor,RU,2019-11-11 00:15:56,62.87,51.9,26.22,95,100,6.78,overcast clouds
378,Alihe,CN,2019-11-11 00:25:34,50.57,123.73,21.47,74,3,11.77,clear sky
379,Saskylakh,RU,2019-11-11 00:16:20,71.97,114.09,-9.12,95,100,1.99,overcast clouds
380,Maltahohe,NA,2019-11-11 00:25:35,-24.83,16.98,58.91,46,0,16.26,clear sky
381,Newcastle,AU,2019-11-11 00:24:12,-32.93,151.78,78.01,35,38,8.05,scattered clouds
382,Ichhawar,IN,2019-11-11 00:25:35,23.03,77.02,62.6,82,0,4.7,haze
383,Jian,IN,2019-11-11 00:25:36,25.65,87.89,67.8,87,0,4.29,clear sky
384,Trairi,BR,2019-11-11 00:20:10,-3.28,-39.27,74.32,84,69,4.81,broken clouds
385,College,US,2019-11-11 00:22:22,64.86,-147.8,19.4,78,90,2.17,overcast clouds
386,Vanimo,PG,2019-11-11 00:16:05,-2.67,141.3,80.46,77,100,7.25,moderate rain
387,San%20Andres,PH,2019-11-11 00:25:36,13.32,122.68,78.62,84,99,6.38,overcast clouds
388,Polunochnoye,RU,2019-11-11 00:25:37,60.87,60.43,17.92,94,100,8.7,light snow
389,Guerrero%20Negro,MX,2019-11-11 00:21:11,27.97,-114.04,70.39,66,90,13.09,overcast clouds
390,Hof,DE,2019-11-11 00:25:37,50.32,11.92,37.0,100,90,4.99,fog
391,Hegang,CN,2019-11-11 00:25:37,47.34,130.28,32.92,94,100,1.3,light rain
392,Turinsk,RU,2019-11-11 00:25:37,58.04,63.7,21.63,82,99,5.79,overcast clouds
393,Gull%20Lake,CA,2019-11-11 00:25:39,50.1,-108.48,-4.01,83,75,9.17,broken clouds
394,Newton,US,2019-11-11 00:25:39,42.34,-71.21,46.99,64,40,9.42,scattered clouds
395,Vardo,US,2019-11-11 00:15:49,39.62,-77.74,50.0,61,1,5.73,clear sky
396,Astana,KZ,2019-11-11 00:25:39,51.13,71.43,6.8,84,75,4.47,broken clouds
397,Sangmelima,CM,2019-11-11 00:21:44,2.93,11.98,68.31,96,100,2.53,overcast clouds
398,Sao%20Filipe,CV,2019-11-11 00:21:36,14.9,-24.5,74.62,81,82,17.65,broken clouds
399,Walsrode,DE,2019-11-11 00:25:40,52.86,9.59,36.0,91,16,5.82,few clouds
400,Terra%20Santa,BR,2019-11-11 00:25:40,-2.1,-56.49,82.18,60,85,2.44,overcast clouds
401,Wilmington%20Island,US,2019-11-11 00:25:40,32.0,-80.97,57.0,66,1,1.07,clear sky
402,Ancud,CL,2019-11-11 00:16:24,-41.87,-73.83,55.4,82,100,5.82,overcast clouds
403,Pyu,MM,2019-11-11 00:25:41,18.48,96.43,71.13,95,4,2.82,clear sky
404,Kloulklubed,PW,2019-11-11 00:16:48,7.04,134.26,84.2,79,75,9.17,broken clouds
405,Biltine,TD,2019-11-11 00:17:53,14.53,20.93,76.12,16,58,11.97,broken clouds
406,Aklavik,CA,2019-11-11 00:16:02,68.22,-135.01,15.8,43,5,3.36,clear sky
407,San%20Quintin,PH,2019-11-11 00:23:32,17.54,120.52,76.32,82,39,3.51,scattered clouds
408,Tocopilla,CL,2019-11-11 00:21:32,-22.09,-70.2,55.26,41,51,2.42,broken clouds
409,Muravlenko,RU,2019-11-11 00:16:59,63.79,74.5,-9.98,85,0,6.67,clear sky
410,Batemans%20Bay,AU,2019-11-11 00:25:42,-35.71,150.18,72.0,43,36,5.01,scattered clouds
411,Torbay,CA,2019-11-11 00:19:32,47.66,-52.73,34.0,69,20,8.05,few clouds
412,Balkanabat,TM,2019-11-11 00:21:33,39.51,54.36,52.45,25,0,21.34,clear sky
413,Solano,CO,2019-11-11 00:25:43,0.7,-75.25,76.77,85,41,1.86,light rain
414,Tessalit,ML,2019-11-11 00:21:47,20.2,1.01,72.41,14,100,13.2,overcast clouds
415,Maamba,ZM,2019-11-11 00:25:43,-17.36,27.22,72.03,70,97,2.26,overcast clouds
416,Imatra,FI,2019-11-11 00:25:44,61.17,28.77,43.0,100,90,3.36,overcast clouds
417,Salvador,BR,2019-11-11 00:25:44,-12.98,-38.48,80.6,83,40,14.99,scattered clouds
418,Charters%20Towers,AU,2019-11-11 00:25:44,-20.07,146.27,86.2,28,51,10.8,broken clouds
419,Sambava,MG,2019-11-11 00:22:09,-14.27,50.17,68.49,92,100,2.57,overcast clouds
420,Raglan,AU,2019-11-11 00:25:44,-23.72,150.82,91.0,34,0,11.41,clear sky
421,Varena,LT,2019-11-11 00:25:44,54.21,24.57,42.8,100,90,9.17,light rain
422,Chingirlau,KZ,2019-11-11 00:20:12,51.09,54.08,31.17,88,0,5.59,clear sky
423,Ibimirim,BR,2019-11-11 00:25:45,-8.54,-37.69,73.33,74,82,16.49,broken clouds
424,Duluth,US,2019-11-11 00:25:45,46.77,-92.13,19.4,48,90,17.22,overcast clouds
425,Puerto%20Suarez,BO,2019-11-11 00:25:45,-18.96,-57.8,77.0,88,75,2.37,broken clouds
426,Havoysund,NO,2019-11-11 00:21:39,71.0,24.66,28.4,79,75,16.11,broken clouds
427,Molteno,ZA,2019-11-11 00:25:46,-31.4,26.36,54.36,85,87,5.91,overcast clouds
428,Shimoda,JP,2019-11-11 00:25:03,34.7,138.93,64.99,77,40,3.36,scattered clouds
429,Biu,NG,2019-11-11 00:25:46,10.61,12.19,79.45,35,44,4.14,scattered clouds
430,Warrington,GB,2019-11-11 00:25:46,53.39,-2.59,42.01,86,100,5.82,moderate rain
431,Tura,RU,2019-11-11 00:21:04,64.27,100.22,-16.32,95,100,2.57,overcast clouds
432,Bacalar,MX,2019-11-11 00:25:47,18.68,-88.39,80.6,83,40,4.85,scattered clouds
433,Guilin,CN,2019-11-11 00:25:47,25.28,110.29,57.2,93,0,4.12,mist
434,Muisne,EC,2019-11-11 00:17:15,0.61,-80.02,77.0,88,90,8.05,overcast clouds
435,Sonqor,IR,2019-11-11 00:25:48,34.78,47.6,41.0,38,0,3.09,clear sky
436,Guayaquil,EC,2019-11-11 00:25:48,-2.18,-79.88,77.0,73,57,12.75,broken clouds
437,Jalu,LY,2019-11-11 00:20:00,29.03,21.55,67.78,71,100,5.84,overcast clouds
438,Praya,ID,2019-11-11 00:25:48,-8.71,116.27,86.0,66,40,5.82,scattered clouds
439,Mersing,MY,2019-11-11 00:25:48,2.43,103.84,81.32,78,100,6.15,light rain
440,Verkhnetulomskiy,RU,2019-11-11 00:25:48,68.61,31.8,-4.01,76,75,1.48,light shower snow
441,Sorong,ID,2019-11-11 00:25:49,-0.86,131.25,83.25,70,24,4.56,few clouds
442,Masallatah,LY,2019-11-11 00:25:49,32.62,14.0,59.14,66,18,13.96,few clouds
443,Puerto%20Madryn,AR,2019-11-11 00:14:30,-42.77,-65.04,52.86,67,58,20.15,broken clouds
444,Kidodi,TZ,2019-11-11 00:25:49,-7.6,37.0,68.74,97,88,1.66,overcast clouds
445,Morehead,US,2019-11-11 00:25:50,38.18,-83.43,59.0,43,1,5.82,clear sky
446,Acapulco,MX,2019-11-11 00:24:49,16.86,-99.88,86.0,79,40,6.93,scattered clouds
447,Mwinilunga,ZM,2019-11-11 00:17:03,-11.73,24.43,62.17,89,100,0.72,light rain
448,Kungurtug,RU,2019-11-11 00:25:50,50.6,97.53,15.67,88,100,2.15,overcast clouds
449,Ca%20Mau,VN,2019-11-11 00:25:50,9.18,105.15,76.91,87,100,3.98,overcast clouds
450,Yeniseysk,RU,2019-11-11 00:19:33,58.45,92.17,-9.48,95,66,6.02,broken clouds
451,Quatre%20Cocos,MU,2019-11-11 00:24:09,-20.21,57.76,71.01,94,40,5.82,scattered clouds
452,Praia%20Da%20Vitoria,PT,2019-11-11 00:25:51,38.73,-27.07,62.6,93,20,2.62,few clouds
453,Michigan%20City,US,2019-11-11 00:25:51,41.71,-86.9,43.0,80,90,8.05,overcast clouds
454,Roding,DE,2019-11-11 00:25:51,49.19,12.52,35.01,100,90,2.44,mist
455,Nizhnyaya%20Poyma,RU,2019-11-11 00:25:51,56.16,97.2,5.32,76,99,8.01,overcast clouds
456,Samoylovka,RU,2019-11-11 00:25:52,51.19,43.71,39.99,89,66,4.0,broken clouds
457,Ranikhet,IN,2019-11-11 00:25:52,29.65,79.42,52.21,72,74,2.64,broken clouds
458,Santiago%20Del%20Estero,AR,2019-11-11 00:25:52,-27.8,-64.26,78.73,51,1,11.23,clear sky
459,Vestmannaeyjar,IS,2019-11-11 00:24:04,63.44,-20.27,44.53,86,100,45.16,moderate rain
460,Negara,ID,2019-11-11 00:25:52,-8.36,114.62,79.95,75,1,3.06,clear sky
461,Ubauro,PK,2019-11-11 00:25:53,28.16,69.73,67.33,24,100,2.95,overcast clouds
462,Marawi,PH,2019-11-11 00:21:44,8.0,124.29,81.0,78,82,4.0,broken clouds
463,Imeni%20Poliny%20Osipenko,RU,2019-11-11 00:25:53,52.42,136.49,22.8,80,99,5.91,overcast clouds
464,Paragominas,BR,2019-11-11 00:17:34,-3.0,-47.35,78.94,74,99,4.65,light rain
465,Raudeberg,NO,2019-11-11 00:25:53,61.99,5.14,28.4,63,0,9.17,clear sky
466,Kirakira,SB,2019-11-11 00:20:19,-10.46,161.92,82.63,60,74,6.58,broken clouds
467,Gaya,IN,2019-11-11 00:25:54,24.8,85.01,66.2,88,40,4.45,fog
468,Smithers,CA,2019-11-11 00:16:23,54.78,-127.17,28.4,58,20,9.17,few clouds
469,Sao%20Jose%20Do%20Belmonte,BR,2019-11-11 00:25:54,-7.86,-38.76,80.37,53,75,22.01,broken clouds
470,Sao%20Jose%20Do%20Egito,BR,2019-11-11 00:25:54,-7.48,-37.27,73.27,67,90,14.7,overcast clouds
471,Miles%20City,US,2019-11-11 00:22:06,46.41,-105.84,12.99,72,90,6.93,overcast clouds
472,Ternate,PH,2019-11-11 00:25:55,14.29,120.72,82.4,74,75,3.36,broken clouds
473,Dauriya,RU,2019-11-11 00:25:55,49.93,116.85,15.6,49,0,16.55,clear sky
474,Stenlille,DK,2019-11-11 00:25:55,55.79,12.21,44.6,93,25,10.29,scattered clouds
475,Beloha,MG,2019-11-11 00:23:32,-25.17,45.06,64.74,86,9,10.78,clear sky
476,Salalah,OM,2019-11-11 00:16:59,17.01,54.1,75.2,69,0,4.7,clear sky
477,Gizo,IL,2019-11-11 00:25:56,31.8,34.94,75.2,23,68,1.12,broken clouds
478,Saint-Francois,FR,2019-11-11 00:24:07,46.42,3.91,33.8,96,90,1.07,fog
479,Puri,ID,2019-11-11 00:25:56,-7.54,112.45,81.7,69,75,2.35,broken clouds
480,Ruteng,ID,2019-11-11 00:25:56,-8.61,120.46,76.73,66,82,2.13,broken clouds
481,Ashland,US,2019-11-11 00:25:57,38.48,-82.64,57.2,81,1,4.29,clear sky
482,Albemarle,US,2019-11-11 00:25:57,35.35,-80.2,54.0,75,0,4.76,clear sky
483,Eyl,SO,2019-11-11 00:17:25,7.98,49.82,78.87,77,0,18.52,clear sky
484,Murovani%20Kurylivtsi,UA,2019-11-11 00:25:57,48.71,27.54,55.0,93,70,1.99,broken clouds
485,Gajraula,IN,2019-11-11 00:25:57,28.84,78.25,62.98,47,76,7.0,broken clouds
486,Belmonte,PT,2019-11-11 00:20:52,40.36,-7.35,50.0,96,100,4.72,light rain
487,Dharchula,IN,2019-11-11 00:25:58,29.85,80.53,40.48,17,56,9.04,broken clouds
488,Richards%20Bay,ZA,2019-11-11 00:22:55,-28.77,32.06,70.54,92,100,23.89,moderate rain
489,Uusikaupunki,FI,2019-11-11 00:24:09,60.8,21.41,33.01,100,90,6.93,mist
490,Qaqortoq,GL,2019-11-11 00:20:53,60.72,-46.03,33.8,80,100,32.21,light snow
491,Masalli,KR,2019-11-11 00:25:59,34.8,126.66,59.0,77,75,8.05,broken clouds
492,Mbandaka,CD,2019-11-11 00:25:59,0.05,18.26,71.49,98,74,3.98,light rain
493,Laguna,BZ,2019-11-11 00:22:13,16.17,-88.94,84.2,70,75,4.7,broken clouds
494,Northam,AU,2019-11-11 00:14:21,-31.65,116.67,64.4,59,0,10.29,clear sky
495,Sivas,TR,2019-11-11 00:26:00,39.75,37.01,41.0,65,8,6.93,clear sky
496,Santa%20Cruz,BR,2019-11-11 00:21:45,-6.22,-36.02,73.44,84,58,9.1,broken clouds
497,Biak,ID,2019-11-11 00:26:00,-0.91,122.88,81.72,64,63,3.65,broken clouds
498,Barao%20De%20Melgaco,BR,2019-11-11 00:26:00,-16.19,-55.97,77.0,73,20,3.36,few clouds
499,Virginia%20Beach,US,2019-11-11 00:23:24,36.85,-75.98,57.2,54,1,5.82,clear sky
500,Lakota,CI,2019-11-11 00:26:00,5.85,-5.68,72.16,97,22,2.57,few clouds
501,Pasighat,IN,2019-11-11 00:26:01,28.06,95.33,66.47,94,99,2.59,light rain
502,Matay,EG,2019-11-11 00:26:01,28.42,30.79,66.22,65,0,13.8,clear sky
503,Benghazi,LY,2019-11-11 00:26:01,32.12,20.07,70.21,65,36,3.67,scattered clouds
504,Linjiang,CN,2019-11-11 00:26:01,41.81,126.91,35.71,98,100,3.71,light rain
505,Port-De-Bouc,FR,2019-11-11 00:26:01,43.4,4.98,51.01,75,100,8.05,overcast clouds
506,Soyo,AO,2019-11-11 00:25:05,-6.13,12.37,77.88,89,29,5.19,scattered clouds
507,Gualaquiza,EC,2019-11-11 00:26:02,-3.4,-78.58,65.26,97,34,2.1,moderate rain
508,Platteville,US,2019-11-11 00:26:02,42.73,-90.48,35.01,86,90,9.17,overcast clouds
509,La%20Palma,CO,2019-11-11 00:26:02,5.36,-74.39,69.85,96,63,2.75,moderate rain
510,Diffa,NE,2019-11-11 00:26:02,13.32,12.61,82.06,18,56,6.2,broken clouds
511,Burns%20Lake,CA,2019-11-11 00:26:02,54.23,-125.76,22.84,66,61,4.76,broken clouds
512,Hornepayne,CA,2019-11-11 00:26:03,49.22,-84.78,7.11,83,77,5.55,broken clouds
513,Wanning,AT,2019-11-11 00:21:25,48.64,13.53,37.99,93,75,3.36,broken clouds
514,Lubao,CD,2019-11-11 00:26:03,-5.39,25.75,70.2,92,24,3.96,light rain
515,Salobrena,ES,2019-11-11 00:26:03,36.74,-3.59,57.99,66,75,5.82,broken clouds
516,Oliveira,BR,2019-11-11 00:26:03,-20.7,-44.83,69.48,82,90,5.19,overcast clouds
517,Akhtubinsk,RU,2019-11-11 00:26:04,48.29,46.17,41.5,93,0,8.99,clear sky
518,Oyama,JP,2019-11-11 00:21:05,36.31,139.8,59.0,81,75,5.82,broken clouds
519,Havelock,US,2019-11-11 00:18:50,34.88,-76.9,54.0,81,1,2.46,clear sky
520,Pacific%20Grove,US,2019-11-11 00:22:50,36.62,-121.92,75.0,77,1,4.7,clear sky
521,Beringovskiy,RU,2019-11-11 00:16:08,63.05,179.32,34.27,98,100,16.51,light rain
522,Melchor%20De%20Mencos,GT,2019-11-11 00:26:05,17.06,-89.15,78.01,88,20,4.7,few clouds
523,Beisfjord,NO,2019-11-11 00:26:05,68.38,17.6,19.99,84,0,10.29,clear sky
524,Awjilah,LY,2019-11-11 00:26:05,29.14,21.3,67.78,71,100,5.84,overcast clouds
525,Dickinson,US,2019-11-11 00:26:05,46.88,-102.79,8.01,71,1,6.93,clear sky
526,Carutapera,BR,2019-11-11 00:16:44,-1.2,-46.02,81.81,78,42,14.76,scattered clouds
527,Hirara,JP,2019-11-11 00:17:11,24.8,125.28,73.4,64,20,9.17,few clouds
528,Gerash,IR,2019-11-11 00:26:06,27.67,54.14,48.2,61,0,3.36,clear sky
529,Ubinskoye,RU,2019-11-11 00:26:06,55.31,79.68,12.51,74,0,6.24,clear sky
530,Sabang,PH,2019-11-11 00:26:06,13.8,121.11,79.0,88,99,1.99,overcast clouds
531,Verkhniye%20Kigi,RU,2019-11-11 00:26:07,55.41,58.6,27.73,81,99,7.14,overcast clouds
532,Prince%20Rupert,CA,2019-11-11 00:26:07,54.32,-130.32,48.2,87,1,2.24,clear sky
533,Sorland,NO,2019-11-11 00:19:33,67.67,12.69,33.85,55,0,17.07,clear sky
534,Cobourg,CA,2019-11-11 00:23:57,43.96,-78.17,39.2,100,90,4.7,light rain
535,Taungdwingyi,MM,2019-11-11 00:26:07,20.0,95.55,71.2,93,0,2.84,clear sky
536,Poronaysk,RU,2019-11-11 00:26:08,49.22,143.1,33.93,62,63,2.21,broken clouds
537,Ampanihy,MG,2019-11-11 00:26:08,-24.69,44.75,62.38,92,18,6.49,few clouds
538,Sobolevo,RU,2019-11-11 00:21:00,54.43,31.9,47.25,92,100,12.75,overcast clouds
539,Abu%20Samrah,SY,2019-11-11 00:26:08,35.3,37.18,61.18,28,7,3.24,clear sky
540,Lardos,GR,2019-11-11 00:26:08,36.09,28.02,68.0,88,61,4.85,broken clouds
541,Tromso,NO,2019-11-11 00:19:38,69.65,18.96,19.4,79,40,5.82,scattered clouds
542,San%20Policarpo,PH,2019-11-11 00:26:09,12.18,125.51,80.71,79,100,8.05,overcast clouds
543,Emporia,US,2019-11-11 00:26:09,38.4,-96.18,57.2,58,1,12.75,clear sky
544,Padang,ID,2019-11-11 00:17:40,-0.92,100.36,68.59,91,100,0.81,overcast clouds
545,Kysyl-Syr,RU,2019-11-11 00:25:10,63.9,122.77,-16.17,90,34,7.67,scattered clouds
546,Dinga,PK,2019-11-11 00:26:09,32.64,73.72,60.8,82,40,3.42,smoke
547,Zunyi,CN,2019-11-11 00:26:10,27.73,106.92,54.23,86,45,1.16,scattered clouds
548,Gold%20Coast,AU,2019-11-11 00:26:10,-28.0,153.41,82.0,50,40,9.17,scattered clouds
549,Mumford,GH,2019-11-11 00:26:10,5.26,-0.76,75.02,93,50,4.81,scattered clouds
550,West%20Fargo,US,2019-11-11 00:26:10,46.88,-96.9,17.6,67,90,11.41,overcast clouds
551,Garowe,SO,2019-11-11 00:26:10,8.41,48.48,71.51,75,0,7.52,clear sky
552,San%20Juan,AR,2019-11-11 00:25:17,-31.54,-68.53,84.72,36,15,18.59,few clouds
553,Tarko-Sale,RU,2019-11-11 00:26:11,64.92,77.78,-9.23,96,0,11.97,clear sky
554,Pandharpur,IN,2019-11-11 00:22:29,17.68,75.33,70.93,77,0,4.18,clear sky
555,Bani%20Walid,LY,2019-11-11 00:26:11,31.76,14.0,58.96,70,14,11.7,few clouds
556,Rocha,UY,2019-11-11 00:26:11,-34.48,-54.34,53.82,95,0,6.78,clear sky
557,Narsipatnam,IN,2019-11-11 00:26:11,17.67,82.61,73.4,94,20,2.24,mist
558,Lata,IN,2019-11-11 00:26:12,30.78,78.62,25.3,20,100,2.93,overcast clouds
559,Dwarka,IN,2019-11-11 00:21:13,28.58,77.04,71.67,30,94,3.4,overcast clouds
560,Matara,BI,2019-11-11 00:16:12,-3.48,29.48,59.09,86,95,4.63,overcast clouds
